[
  {
    "name": "A-1 Record Shop",
    "address": "3925 Round Circle Suite #200",
    "city": "Denver",
    "state": "CO",
    "zip": "95825",
    "phone": "(619) 832-2244",
    "website": "",
    "latitude": "40.004438",
    "longitude": "-105.280601",
    "image": "http://geoffledak.com/recordsource/images/A-1.jpg"
  },
  {
    "name": "Absolute Vinyl Records & Stereo",
    "address": "5360 Arapahoe Ave",
    "city": "Boulder",
    "state": "CO",
    "zip": "80304",
    "phone": "(303) 955-1519",
    "website": "https://www.facebook.com/pages/Absolute-Vinyl-Records-Stereo/123582874341697",
    "latitude": "40.021830",
    "longitude": "-105.266611",
    "image": "http://geoffledak.com/recordsource/images/absolute.jpg"
  },
  {
    "name": "Academy Records & CDs",
    "address": "4421 Table Mesa Drive",
    "city": "Boulder",
    "state": "CO",
    "zip": "95825",
    "phone": "(303) 242-9371",
    "website": "",
    "latitude": "40.021830",
    "longitude": "-105.266611",
    "image": "http://geoffledak.com/recordsource/images/academy.jpg"
  },
  {
    "name": "Alans Record & CD Shop",
    "address": "312 Main St. #104",
    "city": "Denver",
    "state": "CO",
    "zip": "95825",
    "phone": "(704) 325-8970",
    "website": "",
    "latitude": "40.032845",
    "longitude": "-105.275577",
    "image": "http://geoffledak.com/recordsource/images/alansrecordandcdshop.jpg"
  },
  {
    "name": "Avalanche Disc Company",
    "address": "3310 North St.",
    "city": "Boulder",
    "state": "CO",
    "zip": "95825",
    "phone": "(212) 432-3025",
    "website": "",
    "latitude": "40.003644",
    "longitude": "-105.245728",
    "image": "http://geoffledak.com/recordsource/images/avalanche.jpg"
  },
  {
    "name": "Bleecker Bob's Records",
    "address": "4921 Trellis Ave.",
    "city": "Broomfield",
    "state": "CO",
    "zip": "95825",
    "phone": "(704) 402-3293",
    "website": "",
    "latitude": "",
    "longitude": "",
    "image": "http://geoffledak.com/recordsource/images/bleeckerbobs.jpg"
  },
  {
    "name": "Groucho's Disc & Tape Exchange",
    "address": "7182 28th St. #310",
    "city": "Boulder",
    "state": "CO",
    "zip": "95825",
    "phone": "(303) 942-8301",
    "website": "",
    "latitude": "40.017388",
    "longitude": "-105.248646",
    "image": "http://geoffledak.com/recordsource/images/grouchos.jpg"
  },
  {
    "name": "Hudsons Record & Tape Centre",
    "address": "5401 Speaker Ln.",
    "city": "Louisville",
    "state": "CO",
    "zip": "95825",
    "phone": "(303) 578-3156",
    "website": "",
    "latitude": "",
    "longitude": "",
    "image": "http://geoffledak.com/recordsource/images/hudsons.jpg"
  },
  {
    "name": "Phonica",
    "address": "3910 Southside Ave.",
    "city": "Denver",
    "state": "CO",
    "zip": "95825",
    "phone": "(303) 214-3940",
    "website": "",
    "latitude": "",
    "longitude": "",
    "image": "http://geoffledak.com/recordsource/images/phonica.jpg"
  },
  {
    "name": "Revolver Records",
    "address": "9384 Beatles Ave. #107",
    "city": "Denver",
    "state": "CO",
    "zip": "95825",
    "phone": "(421) 352-3921",
    "website": "",
    "latitude": "",
    "longitude": "",
    "image": "http://geoffledak.com/recordsource/images/revolver.jpg"
  },
  {
    "name": "Sam The Record Man",
    "address": "2948 Hedge St.",
    "city": "Denver",
    "state": "CO",
    "zip": "95825",
    "phone": "(404) 303-5214",
    "website": "",
    "latitude": "",
    "longitude": "",
    "image": "http://geoffledak.com/recordsource/images/samtherecordman.jpg"
  },
  {
    "name": "Twist & Shout Records",
    "address": "2508 E Colfax Ave",
    "city": "Denver",
    "state": "CO",
    "zip": "80206",
    "phone": "(303) 722-1943",
    "website": "http://www.twistandshout.com",
    "latitude": "1234",
    "longitude": "1234",
    "image": "http://geoffledak.com/recordsource/images/twistandshout.jpg"
  },
  {
    "name": "Vinyl Exchange",
    "address": "8104 Stapler Way",
    "city": "Denver",
    "state": "CO",
    "zip": "95825",
    "phone": "(303) 592-2958",
    "website": "",
    "latitude": "",
    "longitude": "",
    "image": "http://geoffledak.com/recordsource/images/vinylexchange.jpg"
  },
  {
    "name": "Wax Trax Records",
    "address": "3928 Brookside Way",
    "city": "Denver",
    "state": "CO",
    "zip": "95825",
    "phone": "(819) 382-2951",
    "website": "",
    "latitude": "40.035520",
    "longitude": "-105.247616",
    "image": "http://geoffledak.com/recordsource/images/waxtrax.jpg"
  }
]